{
  "type": "FeatureCollection",
  "crs": { "type": "name", "properties": { "name": "urn:ogc:def:crs:OGC:1.3:CRS84" } },
  
  "features": [
  { "type": "Feature", "properties": {
    "WEB_URL": "http:\/\/www.badenimwein.de",
    "PHONE": "+49 1577 5175795",
    "ZIP": "10435",
    "ADDRESS": "Schönhauser Allee 155",
    "NAME": "Baden im Wein" },
    "geometry": { "type": "Point", "coordinates": [ 13.411639, 52.537693 ] } },
  { "type": "Feature", "properties": {
    "WEB_URL": "https:\/\/www.facebook.com/pages/Scotch-Sofa/224356247609537?sk=timeline&ref=page_internal",
    "PHONE": "+49 30 68004203",
    "ZIP": "10405",
    "ADDRESS": "Kollwitzstraße 18",
    "NAME": "Scotch & Sofa" },
    "geometry": { "type": "Point", "coordinates": [ 13.414427, 52.532667 ] } },
  { "type": "Feature", "properties": {
    "WEB_URL": "http:\/\/www.bravebelgians.be",
    "PHONE": "030 44312854",
    "ZIP": "10119",
    "ADDRESS": "Schönhauser Allee 173",
    "NAME": "HERMAN Belgian Bar" },
    "geometry": { "type": "Point", "coordinates": [ 13.412198, 52.532399 ] } },
  { "type": "Feature", "properties": {
    "WEB_URL": "http:\/\/www.vagabundbrauerei.com",
    "PHONE": "+49 30 52667668",
    "ZIP": "13353",
    "ADDRESS": "Antwerpener Str. 3",
    "NAME": "Vagabund Brauerei" },
    "geometry": { "type": "Point", "coordinates": [ 13.349295, 52.547977 ] } },
  { "type": "Feature", "properties": {
    "WEB_URL": "http:\/\/aplacecalledmyxa.tumblr.com",
    "PHONE": "+49 30 68324447",
    "ZIP": "12047",
    "ADDRESS": "Lenaustraße 22",
    "NAME": "Myxa Berlin" },
    "geometry": { "type": "Point", "coordinates": [ 13.426741, 52.490404 ] } },
  { "type": "Feature", "properties": {
    "WEB_URL": "http:\/\/www.suedblock.org/wp/",
    "PHONE": "+49 30 60941853",
    "ZIP": "10999",
    "ADDRESS": "Admiralstraße 1-2",
    "NAME": "Südblock" },
    "geometry": { "type": "Point", "coordinates": [ 13.416934, 52.498725 ] } },
  { "type": "Feature", "properties": {
    "WEB_URL": "http:\/\/braufest-berlin.de/en/",
    "PHONE": "+49 30 88061080",
    "ZIP": "10997",
    "ADDRESS": "Sorauer Str. 31",
    "NAME": "Hopfenreich" },
    "geometry": { "type": "Point", "coordinates": [ 13.439269, 52.499618 ] } },
  { "type": "Feature", "properties": {
    "WEB_URL": "http:\/\/www.luzia.tc",
    "PHONE": "+49 30 81799958",
    "ZIP": "10999",
    "ADDRESS": "Oranienstraße 34",
    "NAME": "Café Luzia" },
    "geometry": { "type": "Point", "coordinates": [ 13.418292, 52.501884 ] } },
  { "type": "Feature", "properties": {
    "WEB_URL": "http:\/\/www.nstp.de",
    "PHONE": "+49 30 61074029",
    "ZIP": "10997",
    "ADDRESS": "Schlesische Str. 42",
    "NAME": "Wendel" },
    "geometry": { "type": "Point", "coordinates": [ 13.443462, 52.500733 ] } },
  { "type": "Feature", "properties": {
    "WEB_URL": "http:\/\/vinaquavin.de",
    "PHONE": "+49 30 94052886",
    "ZIP": "12047",
    "ADDRESS": "Weserstraße 204",
    "NAME": "Vin Aqua Vin" },
    "geometry": { "type": "Point", "coordinates": [ 13.430666, 52.488017 ] } },
  { "type": "Feature", "properties": {
    "WEB_URL": "http:\/\/www.schwarzescafe-berlin.de/www.schwarzescafe-berlin.de/SchwarzesCafe.html",
    "PHONE": "+49 30 3138038",
    "ZIP": "10623",
    "ADDRESS": "Kantstraße 148",
    "NAME": "Schwarzes Café" },
    "geometry": { "type": "Point", "coordinates": [ 13.324038, 52.505617 ] } }
]
}
